,Latitude,Longitude,Main Address,City,State,Zip Code,County,FIPS
0,36.5098083,-87.2762306,2219 Madison Street,Clarksville,TN,37043,Montgomery County,47125
1,36.3975532,-87.0301978,105 Ren Mar Center Drive,Pleasant View,TN,37146,Cheatham County,47021
2,36.5519881,-87.3261183,1761 Wilma Rudolph Boulevard,Clarksville,TN,37042,Montgomery County,47125
3,36.6265014,-87.3169686,3829 Trenton Road,Clarksville,TN,37040,Montgomery County,47125
4,36.4902171,-86.8779849,3555 Tom Austin Highway,Springfield,TN,37172,Robertson County,47147
5,36.5377887,-87.3667748,701 North Riverside Drive,Clarksville,TN,37040,Montgomery County,47125
6,36.5519434,-87.3980241,50 Dover Crossing,Clarksville,TN,37042,Montgomery County,47125
7,36.5926155,-87.4175369,1970 Fort Campbell Blvd,Clarksville,TN,37042,Montgomery County,47125
8,35.8291879,-88.905213,2349 East End Drive,Humboldt,TN,38343,Gibson County,47053
9,35.791481,-89.1401195,1340 West Church Street,Alamo,TN,38001,Crockett County,47033
10,35.7964268,-88.7855209,505 Sonic Drive,Medina,TN,38355,Gibson County,47053
11,35.6956892,-88.8251254,112 University Parkway,Jackson,TN,38305,Madison County,47113
12,35.6679171,-88.8579885,1052 Vann Drive,Jackson,TN,38305,Madison County,47113
13,35.6595034,-88.8285701,2101 N. Highland,Jackson,TN,38305,Madison County,47113
14,35.9681684,-88.929881,2043 Highway 45 By-pass,Trenton,TN,38382,Gibson County,47053
15,35.6735551,-88.7818032,40 Chloe Place,Jackson,TN,38305,Madison County,47113
16,35.9776464,-85.8048812,602 Congress Boulevard,Smithville,TN,37166,DeKalb County,47041
17,36.243884,-85.940014,131 Myer Street,Carthage,TN,37030,Smith County,47159
18,35.8284806,-86.0785455,800 W. Main Street,Woodbury,TN,37190,Cannon County,47015
19,36.1747952,-86.3028646,1050 Murfreesboro Road,Lebanon,TN,37090,Wilson County,47189
20,36.2088191,-86.3038867,524 W. MAIN STREET,LEBANON,TN,37087,Wilson County,47189
21,35.8746728,-86.3535767,2083 Lascassas Pike,Murfreesboro,TN,37130,Rutherford County,47149
22,36.188318,-86.4108606,6651 Eastgate Blvd.,Lebanon,TN,37090,Wilson County,47189
23,35.8756963,-86.3846516,1918 North Memorial Blvd,Murfreesboro,TN,37129,Rutherford County,47149
24,35.9607698,-86.6729325,7230 Nolensville Road,Nolensville,TN,37135,Williamson County,47187
25,35.9314892,-86.5333005,1889 Almaville Road,Smyrna,TN,37167,Rutherford County,47149
26,35.9806941,-86.5625682,799 Team Blvd,Smyrna,TN,37167,Rutherford County,47149
27,35.9139464,-86.820622,1505 Murfreesboro Road,Franklin,TN,37068,Williamson County,47187
28,35.8651843,-86.4647604,1129 Fortress Blvd,Murfreesboro,TN,37128,Rutherford County,47149
29,35.8651869,-86.8436247,3021 Captain Freeman Parkway,Franklin,TN,37064,Williamson County,47187
30,35.9318503,-86.8248777,4101 Mallory Lane,Franklin,TN,37067,Williamson County,47187
31,35.9632992,-86.7997859,1718 Carouthers Parkway,Brentwood,TN,37027,Williamson County,47187
32,36.2695663,-87.058972,615 S. Main Street,Ashland City,TN,37015,Cheatham County,47021
33,36.1927591,-86.8306276,3115 Clarksville Pike,Nashville,TN,37209,Davidson County,47037
34,36.1455565,-86.872195,6308 CHARLOTTE PIKE,NASHVILLE,TN,37209,Davidson County,47037
35,36.1083438,-86.9230086,617 Old Hickory Blvd.,Bellevue,TN,37209,Davidson County,47037
36,36.2700907,-86.7557596,3904 DICKERSON PIKE,NASHVILLE,TN,37207,Davidson County,47037
37,36.0868665,-87.1002382,106 Luyben Hills Road,Kingston Springs,TN,37082,Cheatham County,47021
38,36.0785444,-86.9531191,7679 Highway 70 S,Nashville,TN,37221,Davidson County,47037
39,35.8322831,-86.3755016,1650 Middle Tennessee Blvd,Murfreesboro,TN,37130,Rutherford County,47149
40,35.8639423,-86.4101518,1311 N.w. Broad Street,Murfreesboro,TN,37129,Rutherford County,47149
41,35.8275993,-86.4143141,1627 New Salem Hwy,Murfreesboro,TN,37128,Rutherford County,47149
42,35.4753199,-86.0808147,624 Hillsboro Boulevard,Manchester,TN,37355,Coffee County,47031
43,35.7988445,-86.399258,2630 S Church Street,Murfreesboro,TN,37128,Rutherford County,47149
44,35.485865,-86.4307116,1117 Madison Avenue,Shelbyville,TN,37160,Bedford County,47003
45,35.5057651,-86.4564826,1604 North Main Street,Shelbyville,TN,37160,Bedford County,47003
46,35.3855942,-86.2336144,1911 N Jackson Street,Tullahoma,TN,37388,Coffee County,47031
47,35.4536967,-86.7774947,420 Ellington Parkway,Lewisburg,TN,37091,Marshall County,47117
48,35.6122937,-86.6999542,4646 Nashville Highway,Chapel Hill,TN,37034,Marshall County,47117
49,35.135767,-86.5664521,1228 Huntsville Highway,Fayetteville,TN,37334,Lincoln County,47103
50,35.1959965,-87.031857,317 S. FIRST STREET,PULASKI,TN,38478,Giles County,47055
51,35.59379,-87.0524333,614 James M. Campbell Blvd,Columbia,TN,38402,Maury County,47119
52,35.6286058,-87.0281565,811 Nashville Highway,Columbia,TN,38401,Maury County,47119
53,35.8433785,-86.4400413,215 Cason Lane,Murfreesboro,TN,37127,Rutherford County,47149
54,36.5528122,-86.2385874,1108 New Highway 52,Westmoreland,TN,37186,Sumner County,47165
55,36.3909145,-86.4355193,505 Hartsville Pike,Gallatin,TN,37066,Sumner County,47165
56,36.3981805,-86.1647242,319 Broadway,Hartsville,TN,37074,Trousdale County,47169
57,36.376219,-86.4793372,172 N Belvedere Drive,Gallatin,TN,37066,Sumner County,47165
58,36.5753604,-86.5146159,403 S. Broadway Street,Portland,TN,37148,Sumner County,47165
59,36.5341634,-86.0312479,1211 SCOTTSVILLE ROAD,LAFAYETTE,TN,37083,Macon County,47111
60,36.3209966,-86.5745891,559 East Main Street,Hendersonville,TN,37075,Sumner County,47165
61,36.4817328,-87.8831465,1311 Donelson Parkway,Dover,TN,37058,Stewart County,47161
62,36.0322305,-86.7846054,208 B. Wilson Pike Circle,Brentwood,TN,37027,Williamson County,47187
63,36.080724,-86.7221857,398 HARDING PLACE,NASHVILLE,TN,37211,Davidson County,47037
64,35.9740486,-86.8318678,1618 Franklin Rd,Brentwood,TN,37027,Williamson County,47187
65,36.0467267,-86.6770437,1331 Bell Road,Nashville,TN,37013,Davidson County,47037
66,35.9974467,-86.8850196,1103 Battlewood Dr,Franklin,TN,37069,Williamson County,47187
67,36.1243594,-86.776788,2501 Franklin Road,Nashville,TN,37204,Davidson County,47037
68,36.014051,-87.332774,2530 Highway 46 South,Dickson,TN,37055,Dickson County,47043
69,35.9831346,-87.1194127,2018 W. Fairview Boulevard,Fairview,TN,37062,Williamson County,47187
70,36.0661463,-87.3808789,400 Highway 46 South,Dickson,TN,37055,Dickson County,47043
71,35.7994954,-87.4384492,729 Highway 100,Centerville,TN,37033,Hickman County,47081
72,36.0462111,-86.9500287,5747 Temple Road,Nashville,TN,37221,Davidson County,47037
73,35.6952012,-85.7799796,813 SMITHVILLE HIGHWAY,MCMINNVILLE,TN,37110,Warren County,47177
74,36.4132969,-86.7910094,2191 Highway 41 S,Greenbrier,TN,37073,Robertson County,47147
75,35.5507967,-87.5421738,435 EAST MAIN,HOHENWALD,TN,38462,Lewis County,47101
76,35.610014,-87.8370358,106 East Brooklyn Ave,Linden,TN,37096,Perry County,47135
77,36.1068602,-87.6323463,9669 Highway 70 East,Mc Ewen,TN,37101,Humphreys County,47085
78,35.443157,-87.2789689,9102 Highway 20,Summertown,TN,38483,Maury County,47119
79,36.0833601,-87.7983308,302 W. Main,Waverly,TN,37185,Humphreys County,47085
80,35.746168,-86.9353173,5404 MAIN STREET,SPRING HILL,TN,37174,Maury County,47119
81,35.9284763,-86.875492,401 Hillsboro Road,Franklin,TN,37064,Williamson County,47187
82,34.9922457,-86.8388778,26909 Main Street,Ardmore,TN,38449,Giles County,47055
83,36.4680377,-86.6615915,417 Hwy 76,White House,TN,37188,Robertson County,47147
84,36.3193735,-86.6246069,279 New Shackle Island Road (New Shackle Island Rd  & Iris Dr),Hendersonville,TN,37075,Sumner County,47165
85,36.3231807,-86.709764,136 Long Hollow Pike,Goodlettsville,TN,37072,Davidson County,47037
86,36.2918366,-88.317667,504 Tyson Avenue,Paris,TN,38242,Henry County,47079
87,35.9345875,-85.4823297,659 W. BOCKMAN WAY,SPARTA,TN,38583,White County,47185
88,36.1552614,-85.5158795,381 W. Jackson Avenue,Cookeville,TN,38501,Putnam County,47141
89,36.2213559,-86.514537,3655 N. Mount Juliet Road,Mount Juliet,TN,37122,Wilson County,47189
90,36.2912299,-86.70274,1565 NORTH GALLATIN PIKE,MADISON,TN,37115,Davidson County,47037
91,36.2569771,-86.6564154,1410 Robinson Road,Old Hickory,TN,37138,Davidson County,47037
92,36.2165379,-86.7285526,3910 Gallatin Pike,Nashville,TN,37216,Davidson County,47037
93,36.1602117,-86.5148547,713 South Mt. Juliet Road (providence),Mount Juliet,TN,37122,Wilson County,47189
94,35.9742164,-86.4919425,791 Nissan Drive,Smyrna,TN,37167,Rutherford County,47149
95,36.0183684,-86.5717944,5210 Murfreesboro Road,La Vergne,TN,37086,Rutherford County,47149
96,36.207477,-86.6125621,4352 Lebanon Road,Hermitage,TN,37076,Davidson County,47037
97,36.1547601,-86.6658895,414 DONELSON PIKE,DONELSON,TN,37214,Davidson County,47037
98,36.1025097,-86.6660272,1701 Murfreesboro Pike,Nashville,TN,37217,Davidson County,47037
99,36.067715,-86.6321753,2787 Murfreesboro Pike (Murfreesboro Pike & Morris Gentry Bv),Antioch,TN,37013,Davidson County,47037
100,36.0584362,-88.1023823,154 W. Main,Camden,TN,38320,Benton County,47005
101,35.6497388,-88.125325,88 E. Main Street,Parsons,TN,38363,Decatur County,47039
102,36.2081024,-86.7681696,2312 DICKERSON PIKE,NASHVILLE,TN,37207,Davidson County,47037
103,35.3243706,-87.7587059,224 Dexter L Woods Mem Blvd,Waynesboro,TN,38485,Wayne County,47181
104,35.6559736,-88.4075717,480 West Church Street,Lexington,TN,38351,Henderson County,47077
105,35.3664823,-85.3922238,15272 Rankin Avenue South,Dunlap,TN,37327,Sequatchie County,47153
106,35.2411746,-85.8467536,541 West Main Street,Monteagle,TN,37356,Grundy County,47061
107,36.006377,-88.4075528,20900 E. MAIN,HUNTINGDON,TN,38344,Carroll County,47017
108,35.358202,-86.217557,504 W. LINCOLN STREET,TULLAHOMA,TN,37388,Coffee County,47031
109,36.3734879,-85.3394625,1375 W Main Street,Livingston,TN,38570,Overton County,47133
110,36.1456179,-85.5003449,724 S. Jefferson,Cookeville,TN,38501,Putnam County,47141
111,36.184936,-85.4577863,559 West Main Street,Algood,TN,38506,Putnam County,47141
112,36.1577523,-86.8024771,1906 Charlotte Avenue,Nashville,TN,37203,Davidson County,47037
113,36.1436333,-86.745545,444 Murfreesboro Road,Nashville,TN,37210,Davidson County,47037
114,35.2102704,-86.0960793,2151 Decherd Boulevard,Decherd,TN,37324,Franklin County,47051
115,35.0738537,-85.6217851,4644 Main Street,Jasper,TN,37347,Marion County,47115
116,35.0817966,-85.0594296,5921 Ooltewah-ringgold Road,Ooltewah,TN,37363,Hamilton County,47065
117,35.0144573,-85.1632678,7420 East Brainerd Road,Chattanooga,TN,37421,Hamilton County,47065
118,35.0447187,-85.1610515,6915 Shallowford Road,Chattanooga,TN,37421,Hamilton County,47065
119,35.0848162,-85.2027818,4407 Highway 58,Chattanooga,TN,37416,Hamilton County,47065
120,34.9953694,-85.2366862,4348 RINGGOLD ROAD,EAST RIDGE,TN,37412,Hamilton County,47065
121,35.0209659,-85.2403768,3907 Brainerd Road,Chattanooga,TN,37411,Hamilton County,47065
122,35.1485385,-84.8390965,3115 Waterlevel Highway,Cleveland,TN,37323,Bradley County,47011
123,35.4521671,-84.626778,1809 Decatur Pike,Athens,TN,37303,McMinn County,47107
124,35.5911228,-84.4779241,782 NEW HIGHWAY 68,SWEETWATER,TN,37874,Monroe County,47123
125,35.1746273,-84.6511207,6284 Highway 411,Benton,TN,37307,Polk County,47139
126,35.1977672,-84.8428237,390 Stuart Road Ne,Cleveland,TN,37312,Bradley County,47011
127,35.5154181,-84.359668,4513 HIGHWAY 411,MADISONVILLE,TN,37354,Monroe County,47123
128,35.506923,-84.9998579,7330 RHEA COUNTY HIGHWAY,DAYTON,TN,37321,Rhea County,47143
129,35.189673,-84.8797356,1340 25TH STREET NW,CLEVELAND,TN,37311,Bradley County,47011
130,35.2235756,-85.2180272,8642 Dayton Pike,Soddy Daisy,TN,37379,Hamilton County,47065
131,35.1529743,-85.1997768,6216 HIXSON PIKE,HIXSON,TN,37343,Hamilton County,47065
132,35.116885,-85.2510226,4305 Hixson Pike,Chattanooga,TN,37415,Hamilton County,47065
133,35.1130253,-85.292898,3508 Dayton Boulevard,Chattanooga,TN,37415,Hamilton County,47065
134,35.0177384,-85.6988761,131 Highway 156,South Pittsburg,TN,37380,Marion County,47115
135,35.6165439,-84.1984374,262 W. Highway 72,Collierville,TN,38017,Monroe County,47123
136,35.7960967,-84.2571615,1000 E. Broadway,Lenoir City,TN,37771,Loudon County,47105
137,35.7403635,-83.9970549,411 Foothills Mall Drive,Maryville,TN,37801,Blount County,47009
138,35.7554852,-83.9506145,1523 E Lamar Alexander Pkwy,Maryville,TN,37804,Blount County,47009
139,35.8838281,-84.6556366,1324 N. Gateway Avenue,Rockwood,TN,37854,Roane County,47145
140,35.969194,-85.037352,1598 N. Main Street,Crossville,TN,38555,Cumberland County,47035
141,35.8728376,-84.5152143,236 N Kentucky St,Kingston,TN,37763,Roane County,47145
142,35.9404215,-84.543719,1007 N Roane Street,Harriman,TN,37748,Roane County,47145
143,36.1025767,-84.5853861,3796 Morgan County Highway,Wartburg,TN,37887,Morgan County,47129
144,35.0188597,-85.3713281,3222 Cummings Highway,Chattanooga,TN,37419,Hamilton County,47065
145,35.1393168,-89.9784834,2460 Poplar Avenue,Memphis,TN,38112,Shelby County,47157
146,35.1496775,-89.9341915,3804 Summer Avenue,Memphis,TN,38122,Shelby County,47157
147,35.2206221,-89.9298124,4009 Frayser-raleigh Road,Memphis,TN,38128,Shelby County,47157
148,35.2056278,-89.9125466,4525 Stage Road,Memphis,TN,38128,Shelby County,47157
149,35.0904485,-89.9306796,1500 Getwell Road,Memphis,TN,38111,Shelby County,47157
150,35.2228215,-89.8936732,3540 Covington Pike,Memphis,TN,38128,Shelby County,47157
151,35.1730897,-89.8679684,5860 Highway 70,Memphis,TN,38134,Shelby County,47157
152,35.0707175,-89.9059924,2865 South Perkins Road,Memphis,TN,38118,Shelby County,47157
153,36.3537701,-82.3824571,2619 N. Roan Street,Johnson City,TN,37604,Washington County,47179
154,36.3486908,-82.2422651,1003 West Elk Avenue,Elizabethton,TN,37643,Carter County,47019
155,36.312129,-82.412253,3300-a W. Market Street,Johnson City,TN,37604,Washington County,47179
156,36.4914369,-82.5055815,3845 Fort Henry Drive,Kingsport,TN,37663,Sullivan County,47163
157,36.5726734,-82.1922866,1015 Volunteer Parkway,Bristol,TN,37625,Sullivan County,47163
158,36.5521204,-82.5282545,1124 E. Stone Drive,Kingsport,TN,37660,Sullivan County,47163
159,36.5943277,-82.2155605,2709 West State St.,Bristol,TN,37620,Sullivan County,47163
160,36.5560459,-82.5986782,2308 West Stone Drive,Kingsport,TN,37660,Sullivan County,47163
161,36.1785783,-82.7857547,2115 E Andrew Johnson Hwy,Greeneville,TN,37743,Greene County,47059
162,36.4143781,-82.9899279,1214 East Main Street,Rogersville,TN,37857,Hawkins County,47073
163,36.2026313,-83.2833362,1153 South Cumberland,Morristown,TN,37814,Hamblen County,47063
164,35.8140394,-83.9817329,2506 Alcoa Hwy,Alcoa,TN,37701,Blount County,47009
165,35.9334793,-83.9980572,5722 Kingston Pike,Knoxville,TN,37919,Knox County,47093
166,35.9223062,-84.0629265,8475 Kingston Pike,Knoxville,TN,37919,Knox County,47093
167,35.9319627,-83.9033905,4515 Chapman Hwy,Knoxville,TN,37920,Knox County,47093
168,35.8947765,-84.1383557,10704 Kingston Pike,Knoxville,TN,37922,Knox County,47093
169,35.9063826,-83.8411344,7519 Mountain Grove Drive,Knoxville,TN,37920,Knox County,47093
170,36.1608698,-84.0868255,2210 North Charles G. Seivers Boulevard,Clinton,TN,37716,Anderson County,47001
171,36.2304837,-84.1589845,605 N. Main Street,Lake City,TN,37769,Anderson County,47001
172,36.0739994,-83.9282729,6949 MAYNARDVILLE HIGHWAY,KNOXVILLE,TN,37918,Knox County,47093
173,36.3738222,-84.1303826,717 W Central Avenue,La Follette,TN,37766,Campbell County,47013
174,36.0318366,-83.9303638,5101 N Broadway,Knoxville,TN,37918,Knox County,47093
175,36.0046683,-84.0195617,2742 Schaad Road,Knoxville,TN,37921,Knox County,47093
176,36.0280955,-83.8742423,5003 Millertown Pike,Knoxville,TN,37917,Knox County,47093
177,36.0017416,-83.9264088,3307 North Broadway,Knoxville,TN,37917,Knox County,47093
178,36.2037408,-83.3269368,2403 West Andrew Johnson Hwy,Morristown,TN,37814,Hamblen County,47063
179,36.1159777,-83.4874671,201 EAST BROADWAY BOULEVARD,JEFFERSON CITY,TN,37760,Jefferson County,47089
180,36.1100157,-83.2843496,1319 State Street,White Pine,TN,37890,Jefferson County,47089
181,36.0175327,-83.4244348,1025 Highway 92 South,Dandridge,TN,37725,Jefferson County,47089
182,35.9683,-83.199625,256 West Broadway,Newport,TN,37821,Cocke County,47029
183,36.0070276,-84.2603707,210 S. Illinois Avenue,Oak Ridge,TN,37830,Anderson County,47001
184,35.9797951,-84.116197,7816 Oakridge Highway,Knoxville,TN,37931,Knox County,47093
185,36.5128499,-84.5101856,19539 N Alberta Avenue,Oneida,TN,37841,Scott County,47151
186,35.972467,-83.9839853,4410 Western Ave,KNOXVILLE,TN,37921,Knox County,47093
187,35.8680468,-83.5592084,308 East Main Street,Sevierville,TN,37862,Sevier County,47155
188,35.8157253,-83.5787749,2246 Parkway,Pigeon Forge,TN,37863,Sevier County,47155
189,36.4269233,-84.9289682,315 Central Avenue East,Jamestown,TN,38556,Fentress County,47049
190,35.2043612,-89.8305528,6981 Highway 64,Memphis,TN,38133,Shelby County,47157
191,35.8798492,-83.7763752,10642 Chapman Highway,Seymour,TN,37865,Sevier County,47155
192,35.5932139,-89.2576717,414 East Main Street,Brownsville,TN,38012,Haywood County,47075
193,36.0494431,-89.3672615,1906 ST JOHN N HWY 51,DYERSBURG,TN,38024,Dyer County,47045
194,36.0469654,-89.4072628,1525 Hwy 51 Bypass North,Dyersburg,TN,38024,Dyer County,47045
195,35.2923823,-89.6755601,6101 Airline Road,Arlington,TN,38002,Shelby County,47157
196,35.2055428,-89.7388663,9696 Highway 64,Lakeland,TN,38002,Shelby County,47157
197,35.2311309,-89.8090346,7636 Us Highway 70 North,Bartlett,TN,38133,Shelby County,47157
198,35.1571895,-89.7281837,1169 N. Houston Levee Road,Memphis,TN,38018,Shelby County,47157
199,35.1612133,-89.7955753,1305 N. Germantown Parkway,Memphis,TN,38018,Shelby County,47157
200,35.2284512,-89.5198647,7026 Highway 64,Oakland,TN,38060,Fayette County,47047
201,35.4475647,-89.7835128,11050 Highway 51 South #13,Atoka,TN,38004,Tipton County,47167
202,35.3476376,-89.9041299,8097 Highway 51 N.,Millington,TN,38053,Shelby County,47157
203,35.595064,-89.6204184,710 Highway 51 N.,Covington,TN,38019,Tipton County,47167
204,35.6481575,-88.8013458,1592 N. Parkway,Jackson,TN,38301,Madison County,47113
205,35.5700354,-88.8153073,1559 S. Highland,Jackson,TN,38301,Madison County,47113
206,36.120998,-89.2616808,123 East Highway 77,Newbern,TN,38059,Dyer County,47045
207,36.3707227,-89.4675488,640 Carl Perkins Parkway,Tiptonville,TN,38079,Lake County,47095
208,36.4153296,-89.0649016,416 Reelfoot Avenue,Union City,TN,38261,Obion County,47131
209,35.7458001,-89.5330656,171 S. Washington,Ripley,TN,38063,Lauderdale County,47097
210,35.2557527,-88.9918792,407 W. Market Street,Bolivar,TN,38008,Hardeman County,47069
211,35.2432389,-89.3576304,16320 Highway 64,Somerville,TN,38068,Fayette County,47047
212,35.438578,-88.6462566,165 N. CHURCH STREET,HENDERSON,TN,38340,Chester County,47023
213,35.1604595,-88.5823023,589 MULBERRY AVENUE,SELMER,TN,38375,McNairy County,47109
214,35.0455371,-89.7318761,3790 S. Houston Levee Road,Collierville,TN,38017,Shelby County,47157
215,35.0511143,-89.8146022,7450 Winchester Road,Memphis,TN,38125,Shelby County,47157
216,35.0358595,-89.8470817,4130 Kirby Parkway,Memphis,TN,38115,Shelby County,47157
217,35.2349761,-88.3846629,325 Main Street,Adamsville,TN,38310,McNairy County,47109
218,35.2279194,-88.2351267,665 WAYNE ROAD,SAVANNAH,TN,38372,Hardin County,47071
219,35.0203466,-89.9541796,3285 Shelby Drive,Memphis,TN,38118,Shelby County,47157
220,35.0479054,-89.886743,3685 Mendenhall Road South,Memphis,TN,38115,Shelby County,47157
221,36.1284796,-88.5110869,15755 Highland Drive,Mc Kenzie,TN,38201,Carroll County,47017
222,36.2763142,-88.7072661,8545 Highway 22,Dresden,TN,38225,Weakley County,47183
223,36.1515753,-88.8008954,1715 S. Meridian Street,Greenfield,TN,38230,Weakley County,47183
224,35.9163775,-88.7529701,1033 E VAN HOOK,MILAN,TN,38358,Gibson County,47053
225,36.35213,-88.84844,413 N. Lindel,Martin,TN,38237,Weakley County,47183
226,35.0809636,-87.4336479,118 N. Military Road,Loretto,TN,38469,Lawrence County,47099
227,35.270534,-87.3196664,2116 N Locust Avenue,Lawrenceburg,TN,38464,Lawrence County,47099
